City_ID,City,Lat,Lng,Max Temp,Humidity,Cloudiness,Wind Speed,Country,Date
0,bara,10.3744,10.7288,296.32,22,0,4.41,NG,1676839014
1,ushuaia,-54.8,-68.3,281.96,66,40,8.23,AR,1676838939
2,ust-nera,64.5667,143.2,232.5,99,83,1.15,RU,1676839015
3,port elizabeth,-33.918,25.5701,294.32,88,0,2.06,ZA,1676839016
4,albany,42.6001,-73.9662,280.9,44,100,0.89,US,1676838482
5,thompson,55.7435,-97.8558,246.24,58,0,2.57,CA,1676839016
6,kilindoni,-7.9139,39.6668,300.47,77,26,5.73,TZ,1676839017
7,asau,46.4333,26.4,279.66,95,82,1.12,RO,1676839017
8,longyearbyen,78.2186,15.6401,259.06,72,40,2.06,SJ,1676839018
9,grindavik,63.8424,-22.4338,277.12,93,75,15.43,IS,1676839018
10,saldanha,-33.0117,17.9442,293.18,81,61,5.03,ZA,1676839019
11,victoria,22.2855,114.1577,293.36,77,100,4.92,HK,1676838904
12,palmer,42.1584,-72.3287,280.9,41,100,8.23,US,1676839020
13,bangahan,7.8044,124.7289,293.01,94,92,0.13,PH,1676839020
14,ayan,56.45,138.1667,253.88,80,69,4.38,RU,1676839021
15,mirnyy,62.5353,113.9611,252.17,97,89,3.12,RU,1676839021
16,khatanga,71.9667,102.5,258.71,90,69,6.99,RU,1676839022
17,avarua,-21.2078,-159.775,302.18,74,30,5.14,CK,1676839023
18,arraial do cabo,-22.9661,-42.0278,301.13,78,0,7.72,BR,1676838731
19,ilulissat,69.2167,-51.1,255.16,71,100,7.2,GL,1676839023
20,graham,47.0529,-122.2943,281.86,88,100,3.6,US,1676839024
21,dikson,73.5069,80.5464,267.98,95,100,5.96,RU,1676839025
22,hobart,-42.8794,147.3294,290.4,74,75,3.09,AU,1676838970
23,yellowknife,62.456,-114.3525,244.44,76,20,1.54,CA,1676839005
24,rikitea,-23.1203,-134.9692,299.56,75,14,7.42,PF,1676839026
25,palmares do sul,-30.2578,-50.5097,296.16,50,5,6.35,BR,1676838852
26,provideniya,64.3833,-173.3,251.94,99,100,6.41,RU,1676839027
27,tupik,54.4253,119.9327,241.83,98,26,1.14,RU,1676839028
28,waipawa,-41.4122,175.5153,291.49,73,1,1.0,NZ,1676839028
29,hasaki,35.7333,140.8333,282.2,54,78,6.14,JP,1676839029
30,kampene,-3.6,26.6667,296.01,89,100,1.25,CD,1676839029
31,eyl,7.9803,49.8164,296.16,70,23,7.77,SO,1676839030
32,carnarvon,-24.8667,113.6333,296.49,82,2,5.97,AU,1676839031
33,bagotville,-28.9833,153.4167,293.07,98,100,1.86,AU,1676839031
34,waxahachie,32.3865,-96.8483,295.44,30,0,4.12,US,1676838971
35,cidreira,-30.1811,-50.2056,295.93,54,51,6.62,BR,1676839032
36,nikolskoye,59.7035,30.7861,268.09,94,98,2.74,RU,1676839033
37,nizwa,22.9333,57.5333,294.55,38,0,0.68,OM,1676839033
38,lata,40.1629,-8.3327,285.41,85,89,1.78,PT,1676839034
39,cherskiy,68.75,161.3,241.32,96,100,1.07,RU,1676839035
40,portland,45.5234,-122.6762,284.05,76,100,4.12,US,1676838907
41,ashland,40.8167,-82.2665,286.02,35,3,8.07,US,1676839035
42,chokurdakh,70.6333,147.9167,227.15,100,77,0.51,RU,1676839036
43,faya,18.3851,42.4509,288.21,69,44,1.14,SA,1676839037
44,busselton,-33.65,115.3333,289.93,76,0,5.23,AU,1676839037
45,broken hill,-31.95,141.4333,295.77,25,0,3.65,AU,1676838768
46,bakel,14.905,-12.4568,305.67,10,100,3.81,SN,1676839038
47,ixtapa,20.7,-105.2,301.61,54,0,4.12,MX,1676839039
48,voh,-20.9667,164.7,299.41,69,15,2.14,NC,1676839040
49,souillac,-20.5167,57.5167,300.36,89,75,4.63,MU,1676839040
50,guzelyurt,38.2772,34.3719,274.02,45,1,3.03,TR,1676839041
51,saint-pierre,-21.3393,55.4781,300.32,78,0,10.29,RE,1676839042
52,churapcha,62.0025,132.4325,244.99,99,100,1.25,RU,1676839042
53,hithadhoo,-0.6,73.0833,300.39,76,65,3.15,MV,1676839043
54,punta arenas,-53.15,-70.9167,284.21,46,75,10.8,CL,1676838751
55,wladyslawowo,54.7909,18.4009,277.56,93,74,8.92,PL,1676839044
56,bredasdorp,-34.5322,20.0403,292.1,74,1,6.98,ZA,1676839044
57,beringovskiy,63.05,179.3167,251.68,96,100,5.24,RU,1676839045
58,ribeira grande,38.5167,-28.7,288.37,72,75,3.09,PT,1676839046
59,new norfolk,-42.7826,147.0587,290.21,63,100,2.24,AU,1676839047
60,mar del plata,-38.0023,-57.5575,298.08,38,47,9.83,AR,1676838980
61,cape town,-33.9258,18.4232,295.03,72,40,6.69,ZA,1676838830
62,paamiut,61.994,-49.6678,265.32,90,100,1.32,GL,1676839047
63,castro,-24.7911,-50.0119,288.76,89,100,3.03,BR,1676839048
64,ancud,-41.8697,-73.8203,288.14,62,28,2.09,CL,1676839049
65,heinola,61.2056,26.0381,267.59,99,92,1.56,FI,1676839049
66,upernavik,72.7868,-56.1549,255.42,92,100,11.49,GL,1676838831
67,hay river,60.8156,-115.7999,245.13,69,20,3.09,CA,1676838941
68,paracuru,-3.41,-39.0306,300.99,79,100,3.46,BR,1676839050
69,presidencia roque saenz pena,-26.7852,-60.4388,304.18,13,37,2.97,AR,1676839051
70,port alfred,-33.5906,26.891,293.81,95,2,3.26,ZA,1676839052
71,sabha,27.0377,14.4283,285.12,31,0,4.66,LY,1676839052
72,jamestown,42.097,-79.2353,284.92,33,100,9.83,US,1676839053
73,kuytun,54.3419,101.5036,252.49,98,79,2.15,RU,1676839053
74,hilo,19.7297,-155.09,298.86,94,75,3.09,US,1676839025
75,hobyo,5.3505,48.5268,297.62,79,95,9.07,SO,1676839055
76,alyangula,-13.8483,136.4192,300.86,78,98,2.17,AU,1676839056
77,san patricio,28.017,-97.5169,300.46,54,86,5.49,US,1676839056
78,teguise,29.0605,-13.564,289.27,72,0,5.14,ES,1676839057
79,hirara,24.8,125.2833,291.35,73,100,12.6,JP,1676839057
80,southampton,50.904,-1.4043,281.37,84,0,1.03,GB,1676838828
81,dhidhdhoo,6.8833,73.1,299.88,71,23,1.78,MV,1676839058
82,saint-philippe,-21.3585,55.7679,299.92,86,88,5.28,RE,1676839059
83,bathsheba,13.2167,-59.5167,301.49,54,20,10.29,BB,1676839059
84,alice springs,-23.7,133.8833,294.9,68,0,2.06,AU,1676839060
85,camopi,3.1655,-52.3158,296.71,97,95,1.52,GF,1676839061
86,mataura,-46.1927,168.8643,288.42,77,39,1.25,NZ,1676839061
87,barrow,71.2906,-156.7887,251.16,77,100,0.0,US,1676839062
88,bekhtery,46.251,32.2927,280.09,88,100,6.58,UA,1676839062
89,bengkulu,-3.8004,102.2655,296.74,91,71,1.71,ID,1676839063
90,jieshi,22.8134,115.8257,289.34,78,61,4.52,CN,1676839063
91,vaini,-21.2,-175.2,301.24,89,40,2.06,TO,1676839064
92,izumo,35.3667,132.7667,281.12,68,75,6.49,JP,1676839065
93,port lincoln,-34.7333,135.8667,293.21,82,0,5.62,AU,1676838976
94,ermelo,-26.5333,29.9833,288.56,95,100,1.34,ZA,1676839066
95,butaritari,3.0707,172.7902,300.04,79,91,4.33,KI,1676839067
96,tasiilaq,65.6145,-37.6368,262.03,87,100,1.28,GL,1676839067
97,kaspiyskiy,45.3929,47.3707,275.07,99,100,4.29,RU,1676839068
98,torbay,47.6666,-52.7314,269.97,87,75,5.66,CA,1676838969
99,vardo,70.3705,31.1107,268.14,93,75,8.75,NO,1676839069
100,brae,60.3964,-1.353,282.65,90,100,16.78,GB,1676839069
101,padang,-0.9492,100.3543,297.78,84,100,1.55,ID,1676839070
102,katsuura,35.1333,140.3,284.24,54,100,3.87,JP,1676839070
103,atuona,-9.8,-139.0333,299.13,77,71,6.27,PF,1676839071
104,khimki,55.9017,37.4375,266.47,86,75,5.0,RU,1676839071
105,lichtenburg,-26.152,26.1597,291.37,80,100,3.7,ZA,1676839072
106,puerto ayora,-0.7393,-90.3518,305.13,70,26,5.7,EC,1676839072
107,kalmunai,7.4167,81.8167,297.64,88,78,2.29,LK,1676839073
108,severo-kurilsk,50.6789,156.125,264.28,83,87,7.09,RU,1676839073
109,luderitz,-26.6481,15.1594,290.37,87,1,1.8,NA,1676839074
110,sibolga,1.7427,98.7792,297.22,91,100,1.28,ID,1676839074
111,manta,-0.95,-80.7333,300.03,89,75,2.06,EC,1676838789
112,mezen,65.8522,44.24,256.66,98,43,2.56,RU,1676839075
113,cacu,-18.5567,-51.1308,298.19,86,88,2.63,BR,1676839076
114,tura,25.5198,90.2201,291.26,49,2,1.15,IN,1676839076
115,suleja,9.1758,7.1808,301.7,14,1,3.15,NG,1676838806
116,batagay,67.6333,134.6333,230.11,100,50,1.41,RU,1676839077
117,vao,-22.6667,167.4833,297.98,64,0,8.77,NC,1676839077
118,sept-iles,50.2001,-66.3821,266.51,51,75,3.6,CA,1676838938
119,inta,66.0317,60.1659,252.99,99,87,2.38,RU,1676839078
120,mandalgovi,45.7625,106.2708,263.03,59,4,1.47,MN,1676839078
121,chuy,-33.6971,-53.4616,293.72,43,100,5.7,UY,1676839079
122,umm kaddadah,13.6017,26.6876,291.95,16,24,6.42,SD,1676839080
123,pevek,69.7008,170.3133,242.29,93,100,0.49,RU,1676839080
124,faanui,-16.4833,-151.75,300.49,73,1,3.12,PF,1676839081
125,talnakh,69.4865,88.3972,256.6,96,98,3.05,RU,1676838797
126,nanortalik,60.1432,-45.2371,265.06,83,92,2.9,GL,1676839081
127,sechura,-5.5569,-80.8222,302.85,58,51,7.87,PE,1676839082
128,bandarbeyla,9.4942,50.8122,297.07,79,24,8.48,SO,1676839082
129,jutai,-5.1833,-68.9,295.93,98,100,1.0,BR,1676839083
130,bluff,-46.6,168.3333,288.6,80,29,2.65,NZ,1676839084
131,taiobeiras,-15.8078,-42.2331,296.57,68,98,2.2,BR,1676839085
132,lastoursville,-0.8143,12.7287,298.78,63,99,1.29,GA,1676839085
133,tateyama,34.9833,139.8667,282.09,58,92,4.33,JP,1676839086
134,tuktoyaktuk,69.4541,-133.0374,239.15,68,75,2.57,CA,1676839087
135,kodiak,57.79,-152.4072,274.88,64,0,6.17,US,1676839087
136,pisco,-13.7,-76.2167,300.18,69,0,12.35,PE,1676839088
137,samarai,-10.6167,150.6667,301.0,74,96,2.22,PG,1676839089
138,myaundzha,63.0494,147.1858,233.4,99,91,1.55,RU,1676839089
139,cap malheureux,-19.9842,57.6142,300.08,78,100,3.58,MU,1676839090
140,leningradskiy,69.3833,178.4167,240.75,96,100,3.17,RU,1676839091
141,mahebourg,-20.4081,57.7,300.31,89,75,4.63,MU,1676839091
142,obihiro,42.9172,143.2044,269.85,95,100,5.82,JP,1676839092
143,lebu,-37.6167,-73.65,289.61,77,2,8.87,CL,1676839033
144,kempele,64.9131,25.5034,267.66,72,40,3.13,FI,1676839093
145,namibe,-15.1961,12.1522,293.82,73,100,5.06,AO,1676839093
146,klaksvik,62.2266,-6.589,280.66,76,90,17.79,FO,1676839094
147,abonnema,4.7084,6.7931,301.31,73,36,4.51,NG,1676839094
148,hofn,64.2539,-15.2082,274.16,100,75,2.57,IS,1676839095
149,havre-saint-pierre,50.2334,-63.5986,266.15,53,0,5.66,CA,1676839096
150,cabedelo,-6.9811,-34.8339,302.52,71,84,4.71,BR,1676839096
151,akureyri,65.6835,-18.0878,274.11,93,100,5.14,IS,1676839097
152,bambous virieux,-20.3428,57.7575,300.29,89,75,4.63,MU,1676839097
153,quetigny,47.3167,5.1167,281.22,81,0,2.57,FR,1676839098
154,isangel,-19.55,169.2667,300.17,67,15,6.04,VU,1676839098
155,saskylakh,71.9167,114.0833,252.92,98,36,3.04,RU,1676839099
156,kapaa,22.0752,-159.319,299.14,87,100,3.09,US,1676839099
157,seoul,37.5683,126.9778,271.84,77,0,1.54,KR,1676838852
158,kamyshla,54.1169,52.1426,255.26,98,12,3.26,RU,1676839100
159,richards bay,-28.783,32.0377,298.09,86,75,5.22,ZA,1676839101
160,ojinaga,29.5667,-104.4167,294.58,25,0,0.0,MX,1676839101
161,lewistown,40.5992,-77.5714,286.59,65,75,2.06,US,1676839102
162,dharchula,29.85,80.5333,286.96,41,31,3.19,IN,1676838902
163,gat,31.61,34.7642,285.53,80,0,2.55,IL,1676839025
164,ossora,59.2353,163.0719,249.8,89,100,2.12,RU,1676839103
165,san cristobal,7.7669,-72.225,298.25,37,6,0.8,VE,1676839104
166,la serena,-29.9078,-71.2542,295.88,64,0,6.17,CL,1676839105
167,mount gambier,-37.8333,140.7667,286.87,93,3,1.1,AU,1676839105
168,megion,61.0296,76.1136,259.16,95,100,3.7,RU,1676839106
169,udachnyy,66.4167,112.4,249.52,98,100,1.96,RU,1676839106
170,honningsvag,70.9821,25.9704,273.01,86,100,10.8,NO,1676839107
171,banjar,-8.19,114.9675,298.29,90,100,2.29,ID,1676839108
172,madras,13.0878,80.2785,299.24,80,20,0.0,IN,1676839100
173,mayumba,-3.432,10.6554,298.86,87,98,2.07,GA,1676839108
174,rio claro,-22.4114,-47.5614,291.72,93,100,4.16,BR,1676839109
175,suoyarvi,62.0833,32.35,261.93,96,100,3.09,RU,1676839109
176,usinsk,65.9939,57.5281,251.76,100,96,2.64,RU,1676839110
177,havoysund,70.9963,24.6622,273.28,71,100,9.78,NO,1676839111
178,villa carlos paz,-31.4241,-64.4978,300.03,27,0,3.58,AR,1676839112
179,boa vista,2.8197,-60.6733,305.14,43,40,5.66,BR,1676839112
180,norman wells,65.282,-126.8329,250.17,70,100,2.06,CA,1676839113
181,jawhar,2.7809,45.5005,296.75,72,100,7.53,SO,1676839113
182,norsup,-16.0667,167.3833,300.84,78,24,3.81,VU,1676839114
183,lavrentiya,65.5833,-171.0,249.27,90,100,2.72,RU,1676839114
184,lompoc,34.6391,-120.4579,294.7,29,0,2.24,US,1676839115
185,cockburn town,21.4612,-71.1419,297.95,68,1,8.71,TC,1676838897
186,vila,42.0304,-8.1588,282.64,59,7,2.0,PT,1676839116
187,ulladulla,-35.35,150.4667,294.15,82,3,2.54,AU,1676839117
188,iberia,29.9502,-91.7507,294.19,60,20,4.63,US,1676839117
189,ornskoldsvik,63.2909,18.7153,271.68,100,100,2.57,SE,1676839118
190,zhigansk,66.7697,123.3711,239.51,98,97,5.21,RU,1676839118
191,saint george,37.1041,-113.5841,287.28,33,0,1.54,US,1676839119
192,la reforma,25.0833,-108.05,298.27,35,40,4.53,MX,1676839119
193,okhotsk,59.3833,143.3,245.43,82,1,4.21,RU,1676839120
194,lincoln,40.8,-96.667,282.74,58,0,3.09,US,1676839118
195,homer,59.6425,-151.5483,274.09,83,75,4.92,US,1676839120
196,abong mbang,3.9833,13.1833,297.18,24,56,0.94,CM,1676839121
197,salalah,17.0151,54.0924,300.2,24,0,10.29,OM,1676839121
198,kamensk-uralskiy,56.4185,61.9329,248.46,100,100,1.73,RU,1676839122
199,la peca,-5.6111,-78.435,301.54,52,88,2.02,PE,1676839122
200,spokane,47.6166,-117.3677,279.3,72,100,7.72,US,1676838984
201,hermanus,-34.4187,19.2345,291.93,78,3,8.59,ZA,1676839123
202,qaanaaq,77.484,-69.3632,258.62,65,91,4.19,GL,1676839124
203,shelburne,44.0787,-80.2041,278.22,69,96,8.0,CA,1676839124
204,valleyview,55.0667,-117.2859,270.17,93,100,2.57,CA,1676839125
205,jiangyou,31.7667,104.7167,280.12,68,15,1.05,CN,1676839125
206,alta floresta,-9.8756,-56.0861,297.96,95,100,1.34,BR,1676839126
207,narsaq,60.9167,-46.05,267.27,88,100,2.83,GL,1676839126
208,penzberg,47.75,11.3833,280.94,84,100,2.89,DE,1676839126
209,kavaratti,10.5669,72.642,299.36,75,9,2.89,IN,1676839127
210,khandela,27.6,75.5,291.78,18,12,3.0,IN,1676839128
211,dunedin,-45.8742,170.5036,292.48,66,60,2.68,NZ,1676839128
212,karratha,-20.7377,116.8463,303.79,54,74,4.16,AU,1676839129
213,praia,14.9215,-23.5087,294.45,78,75,10.29,CV,1676839129
214,wlodawa,51.55,23.55,273.12,71,51,4.53,PL,1676839130
215,haradok,55.4624,29.9816,270.86,95,100,6.84,BY,1676839130
216,constitucion,-35.3333,-72.4167,293.55,57,14,5.79,CL,1676839131
217,ponta delgada,37.7333,-25.6667,286.55,88,20,5.66,PT,1676839131
218,abu dhabi,24.4667,54.3667,295.34,67,0,4.12,AE,1676839046
219,nemuro,43.3236,145.575,271.31,97,100,12.39,JP,1676839132
220,prince rupert,54.3161,-130.3201,278.2,87,100,2.06,CA,1676838965
221,sitka,57.0531,-135.33,277.09,87,100,2.57,US,1676839133
222,hanmer springs,-42.5167,172.8167,294.62,44,11,1.19,NZ,1676839134
223,fortuna,40.5982,-124.1573,286.44,70,0,4.12,US,1676839134
224,pascagoula,30.3658,-88.5561,295.0,48,0,2.57,US,1676839135
225,axim,4.8699,-2.2405,299.59,83,6,3.85,GH,1676839135
226,dickson,36.077,-87.3878,288.51,29,0,7.2,US,1676839136
227,mbini,1.574,9.6134,300.23,83,90,4.09,GQ,1676839136
228,skjervoy,70.0311,20.9714,270.15,81,100,3.81,NO,1676839137
229,verkhnevilyuysk,63.4453,120.3167,247.18,99,99,1.85,RU,1676839137
230,bethel,41.3712,-73.414,281.49,55,0,4.12,US,1676839138
231,sao filipe,14.8961,-24.4956,295.1,74,95,3.78,CV,1676839138
232,phan thiet,10.9333,108.1,296.36,87,100,0.46,VN,1676839139
233,whitehorse,60.7161,-135.0538,269.32,81,75,2.06,CA,1676839047
234,sao joao da barra,-21.6403,-41.0511,302.2,87,95,4.16,BR,1676838877
235,koscierzyna,54.1223,17.9812,276.4,80,78,7.16,PL,1676839140
236,igarka,67.4667,86.5833,252.9,100,100,0.94,RU,1676839140
237,krasnyy kholm,58.0607,37.1203,264.83,93,100,5.66,RU,1676839141
238,wynyard,-41.0,145.7167,288.69,94,77,2.09,AU,1676839141
239,ponta do sol,32.6667,-17.1,291.49,61,14,2.64,PT,1676839142
240,bonavista,48.6499,-53.1147,269.5,75,100,6.63,CA,1676839143
241,qaqortoq,60.7167,-46.0333,262.63,82,100,2.7,GL,1676839143
242,nouadhibou,20.931,-17.0347,292.14,72,100,5.66,MR,1676839144
243,cabo san lucas,22.8909,-109.9124,300.16,53,0,6.69,MX,1676838881
244,japura,-0.3167,102.35,296.45,97,100,1.23,ID,1676839144
245,machilipatnam,16.1667,81.1333,296.43,74,0,1.66,IN,1676839145
246,katobu,-4.9408,122.5276,297.22,92,80,0.84,ID,1676839146
247,tiarei,-17.5333,-149.3333,304.16,73,26,3.55,PF,1676839146
248,itaituba,-4.2761,-55.9836,300.24,83,75,2.57,BR,1676839147
249,te anau,-45.4167,167.7167,290.33,88,88,2.37,NZ,1676839147
250,chifeng,42.2683,118.9636,262.71,43,0,5.86,CN,1676839148
251,banda aceh,5.5577,95.3222,298.23,83,99,4.13,ID,1676839149
252,huarmey,-10.0681,-78.1522,298.59,74,100,4.93,PE,1676839149
253,farafangana,-22.8167,47.8333,297.9,80,96,3.01,MG,1676839150
254,caravelas,-17.7125,-39.2481,299.13,79,8,2.7,BR,1676839150
255,east london,-33.0153,27.9116,296.94,91,9,3.37,ZA,1676839151
256,codrington,-38.2667,141.9667,286.99,89,1,0.73,AU,1676839151
257,chishtian mandi,29.8,72.8667,294.63,14,100,1.68,PK,1676839152
258,rio gallegos,-51.6226,-69.2181,287.18,28,75,11.83,AR,1676839153
259,geraldton,-28.7667,114.6,296.38,83,100,4.12,AU,1676839153
260,jiwani,25.05,61.7417,296.5,71,99,8.42,PK,1676839154
261,mwene-ditu,-7.0,23.45,290.72,96,100,1.33,CD,1676839154
262,eureka,40.8021,-124.1637,287.36,65,33,2.68,US,1676839155
263,bourail,-21.5667,165.4833,298.25,69,0,1.96,NC,1676839155
264,pangnirtung,66.1451,-65.7125,235.15,61,0,0.0,CA,1676839156
265,ravar,31.2656,56.8055,283.32,41,15,0.88,IR,1676839157
266,bukachacha,52.9833,116.9167,247.75,94,5,1.84,RU,1676839158
267,daru,-9.0763,143.2092,298.97,88,97,1.74,PG,1676839159
268,siderno,38.2779,16.302,285.0,84,10,4.86,IT,1676839159
269,port hueneme,34.1478,-119.1951,295.66,40,0,7.72,US,1676838861
270,katangli,51.7102,143.2326,244.41,100,100,2.41,RU,1676839160
271,puksoozero,62.5903,40.6066,258.82,96,91,2.64,RU,1676839161
272,maiduguri,11.8464,13.1603,293.68,23,0,3.9,NG,1676839161
273,bonfim,3.0833,-59.95,305.12,42,79,6.36,BR,1676839162
274,thanh hoa,19.8,105.7667,292.15,75,100,1.48,VN,1676839163
275,tiksi,71.6872,128.8694,241.93,98,50,3.76,RU,1676839163
276,uusikaupunki,60.8004,21.4084,271.29,96,98,3.42,FI,1676839074
277,chuguyevka,44.1653,133.8633,255.27,100,99,0.85,RU,1676839164
278,puerto varas,-41.3195,-72.9854,290.27,45,0,8.23,CL,1676839164
279,wanaka,-44.7,169.15,290.97,74,82,2.95,NZ,1676839159
280,nuuk,64.1835,-51.7216,261.97,92,100,4.84,GL,1676839166
281,liverpool,53.4106,-2.9779,282.2,85,40,4.12,GB,1676839166
282,atbasar,51.8,68.3333,266.17,95,100,6.04,KZ,1676839167
283,georgetown,5.4112,100.3354,299.11,94,20,1.03,MY,1676839167
284,mount isa,-20.7333,139.5,294.02,94,97,2.57,AU,1676839168
285,crestview,30.7621,-86.5705,295.32,40,0,2.57,US,1676839169
286,magadi,12.9667,77.2333,291.23,67,2,3.25,IN,1676839169
287,airai,-8.9266,125.4092,288.63,94,93,0.72,TL,1676839170
288,linqing,36.8456,115.7117,275.12,35,0,3.4,CN,1676839170
289,puerto carreno,6.189,-67.4859,308.14,38,20,4.63,CO,1676839171
290,berlevag,70.8578,29.0864,273.15,86,75,6.17,NO,1676839171
291,yar-sale,66.8333,70.8333,248.02,100,49,1.04,RU,1676839172
292,collie,-33.3667,116.15,288.05,85,0,4.0,AU,1676839172
293,luoyang,34.6836,112.4536,277.47,36,1,1.69,CN,1676839173
294,nsanje,-16.92,35.262,297.87,87,100,1.45,MW,1676839174
295,kenai,60.5544,-151.2583,271.01,94,100,2.57,US,1676839024
296,tarumovka,44.0761,46.5361,277.31,83,99,1.66,RU,1676839174
297,namatanai,-3.6667,152.4333,299.83,83,96,2.18,PG,1676839175
298,honiara,-9.4333,159.95,299.73,80,79,1.29,SB,1676839175
299,chamba,32.5667,76.1333,290.17,48,100,2.43,IN,1676839176
300,eau claire,44.8114,-91.4985,274.77,81,100,3.09,US,1676838910
301,naberera,-4.2,36.9333,292.5,64,24,7.51,TZ,1676839177
302,teahupoo,-17.8333,-149.2667,301.13,77,30,3.41,PF,1676839177
303,sioux lookout,50.1001,-91.917,259.19,61,75,6.17,CA,1676839178
304,quatre cocos,-20.2078,57.7625,300.21,88,100,8.53,MU,1676839179
305,nome,64.5011,-165.4064,260.19,78,100,3.09,US,1676839180
306,opuwo,-18.0607,13.84,290.29,47,94,3.31,NA,1676839180
307,yerbogachen,61.2767,108.0108,258.98,95,100,3.8,RU,1676839181
308,hirna,9.2167,41.1,286.91,30,25,0.89,ET,1676839181
309,iqaluit,63.7506,-68.5145,240.0,68,40,1.03,CA,1676839182
310,redmond,47.674,-122.1215,281.91,91,100,1.34,US,1676838953
311,makakilo city,21.3469,-158.0858,299.33,67,0,2.06,US,1676839183
312,acapulco,16.8634,-99.8901,304.05,51,0,7.72,MX,1676838899
313,socorro,31.6546,-106.3033,287.31,85,100,3.6,US,1676839184
314,port townsend,48.117,-122.7605,282.69,84,100,3.13,US,1676839184
315,porbandar,21.6422,69.6093,296.42,50,3,3.92,IN,1676839185
316,shache,38.4167,77.2406,274.35,45,100,0.37,CN,1676839186
317,nouakchott,18.0858,-15.9785,299.11,58,53,7.77,MR,1676839187
318,esperance,-33.8667,121.9,291.8,92,26,5.43,AU,1676839188
319,tamale,9.4008,-0.8393,302.89,13,80,2.87,GH,1676839188
320,wagga wagga,-35.1167,147.3667,291.4,38,0,1.46,AU,1676839189
321,erzin,36.9559,36.2,282.16,81,2,1.61,TR,1676839189
322,cayenne,4.9333,-52.3333,298.17,88,100,2.57,GF,1676839190
323,nepomuceno,-21.2358,-45.2358,294.75,88,62,2.8,BR,1676839190
324,almeirim,-1.5233,-52.5817,297.76,89,98,1.62,BR,1676839191
325,adrar,20.5022,-10.0711,299.18,12,73,4.86,MR,1676839191
326,lorengau,-2.0226,147.2712,300.15,79,90,0.91,PG,1676839192
327,tuatapere,-46.1333,167.6833,290.88,71,45,0.63,NZ,1676839192
328,margate,51.3813,1.3862,280.86,78,100,1.34,GB,1676839193
329,vila velha,-20.3297,-40.2925,302.12,80,20,5.14,BR,1676839194
330,hamilton,39.1834,-84.5333,288.68,34,20,5.14,US,1676839103
331,phalombe,-15.8064,35.6507,293.95,94,82,0.63,MW,1676839195
332,husavik,66.0449,-17.3389,274.05,99,100,8.93,IS,1676839195
333,kingman,35.1894,-114.053,291.55,24,0,1.79,US,1676839148
334,rajanpur,29.1035,70.325,294.66,23,66,2.88,PK,1676839196
335,korla,41.7597,86.1469,273.21,76,73,1.36,CN,1676839197
336,keti bandar,24.1447,67.4497,295.29,84,17,4.74,PK,1676839197
337,beloha,-25.1667,45.05,298.2,79,2,1.43,MG,1676839198
338,gualaca,8.5333,-82.3,306.52,35,97,5.93,PA,1676839198
339,kokopo,-4.352,152.2633,298.37,84,100,1.5,PG,1676839199
340,bowen,-20.0167,148.2333,298.93,76,100,6.95,AU,1676839200
341,saint-augustin,51.226,-58.6502,262.04,80,81,2.57,CA,1676839201
342,araouane,18.9048,-3.5265,296.65,10,9,4.57,ML,1676839202
343,fukue,32.6881,128.8419,282.75,54,20,8.86,JP,1676839202
344,touros,-5.1989,-35.4608,300.1,72,44,5.43,BR,1676839115
345,teknaf,20.8624,92.3058,291.78,87,0,2.03,BD,1676839204
346,nanakuli,21.3906,-158.1547,300.12,59,0,2.06,US,1676839205
347,acobamba,-11.3525,-75.6594,285.47,95,100,2.51,PE,1676839206
348,great yarmouth,52.6083,1.7305,282.82,87,79,6.57,GB,1676839207
349,balod,20.73,81.2047,291.61,34,0,1.24,IN,1676839173
350,sisimiut,66.9395,-53.6735,257.51,91,100,3.3,GL,1676839208
351,bijie,27.3125,105.2942,279.06,89,100,1.71,CN,1676839154
352,kununurra,-15.7667,128.7333,300.14,83,75,3.09,AU,1676839209
353,berezovka,53.7214,25.4993,272.33,67,7,7.37,BY,1676839210
354,chodavaram,17.8333,82.95,297.06,87,0,0.77,IN,1676839210
355,lasa,46.6166,10.7002,282.64,82,21,3.32,IT,1676839211
356,pizarro,4.9533,-77.366,300.61,76,66,1.85,CO,1676839212
357,acarau,-2.8856,-40.12,299.43,80,100,5.17,BR,1676839213
358,yevsino,54.4172,83.3222,254.6,99,93,1.55,RU,1676839213
359,bejucal,22.9286,-82.3886,301.72,54,40,4.63,CU,1676839214
360,mokhsogollokh,61.4681,128.9203,241.98,100,98,1.71,RU,1676839214
361,vila franca do campo,37.7167,-25.4333,286.38,80,82,2.31,PT,1676839215
362,guaruja,-23.9931,-46.2564,296.07,88,100,4.12,BR,1676839216
363,shingu,33.7333,135.9833,279.5,74,57,3.34,JP,1676839216
364,orchard homes,46.8633,-114.0484,277.19,85,100,1.79,US,1676839217
365,basco,20.4487,121.9702,296.3,83,100,16.48,PH,1676839217
366,baglan,36.1307,68.7083,285.13,75,99,1.01,AF,1676839218
367,ust-koksa,50.2696,85.6108,259.04,94,52,0.45,RU,1676839219
368,nosy varika,-20.5833,48.5333,297.09,82,3,1.67,MG,1676839220
369,lewiston,44.1003,-70.2148,277.73,65,100,1.79,US,1676839220
370,auki,-8.7676,160.7034,299.27,86,93,1.37,SB,1676839221
371,frankfort,-27.2667,28.4833,289.2,90,70,1.48,ZA,1676839221
372,roebourne,-20.7833,117.1333,304.59,51,74,4.94,AU,1676839222
373,dingzhou,38.5131,114.9956,270.21,45,0,2.18,CN,1676839222
374,namwala,-15.7504,26.4384,293.43,91,100,2.17,ZM,1676839223
375,aliwal north,-30.6937,26.7114,293.41,28,2,3.12,ZA,1676839224
376,corinto,37.9407,22.9573,286.98,77,0,4.53,GR,1676839225
377,surin,14.8818,103.4936,293.49,60,84,5.21,TH,1676839216
378,toamasina,-18.1667,49.3833,296.15,94,40,2.06,MG,1676839226
379,kemi,65.8596,24.8228,268.02,93,100,2.06,FI,1676839226
380,chornobayivka,46.6941,32.5537,278.78,84,100,0.92,UA,1676839227
381,marsa matruh,31.3525,27.2453,288.26,63,40,2.57,EG,1676839228
382,aksarka,66.5606,67.7975,250.15,98,56,1.48,RU,1676839229
383,ahuimanu,21.4447,-157.8378,299.99,79,40,2.06,US,1676839230
384,ferme-neuve,46.7001,-75.4493,274.44,82,100,5.87,CA,1676839230
385,sarny,51.338,26.6019,273.35,73,36,5.92,UA,1676839231
386,teya,60.3778,92.6267,263.59,90,100,4.29,RU,1676839231
387,teguldet,57.3064,88.1667,261.34,95,100,2.99,RU,1676839232
388,westport,41.1415,-73.3579,281.9,63,0,5.66,US,1676839070
389,xichang,27.8964,102.2634,281.37,81,76,0.83,CN,1676839233
390,evensk,61.95,159.2333,250.21,79,100,4.07,RU,1676839233
391,kasongo-lunda,-6.4667,16.8167,294.88,91,100,0.71,CD,1676839234
392,laguna,38.421,-121.4238,291.66,44,0,2.57,US,1676839046
393,kruisfontein,-34.0033,24.7314,293.09,72,2,2.57,ZA,1676839235
394,berbera,10.4396,45.0143,297.23,64,72,0.72,SO,1676839236
395,pingxiang,27.6167,113.85,281.98,92,4,0.81,CN,1676839236
396,qui nhon,13.7667,109.2333,293.8,90,99,4.52,VN,1676839217
397,guerrero negro,27.9769,-114.0611,291.44,54,100,2.36,MX,1676838961
398,natal,-5.795,-35.2094,302.51,74,40,6.69,BR,1676838946
399,worland,44.0169,-107.9554,273.79,71,0,2.68,US,1676839071
400,balykshi,47.0667,51.8667,274.15,93,75,7.0,KZ,1676839238
401,rio grande,-32.035,-52.0986,297.21,51,24,5.94,BR,1676839239
402,machacamarca,-18.1667,-67.0333,290.44,24,64,4.07,BO,1676839239
403,den helder,52.9599,4.7593,279.25,88,100,8.05,NL,1676839240
404,necochea,-38.5473,-58.7368,296.3,37,100,5.78,AR,1676839240
405,port blair,11.6667,92.75,298.29,76,18,3.64,IN,1676839241
406,aleksandrovskoye,44.7142,43.0008,275.64,86,100,2.3,RU,1676839242
407,iquique,-20.2208,-70.1431,300.17,75,84,4.48,CL,1676839242
408,taksimo,56.3444,114.8794,247.8,87,77,1.49,RU,1676839242
409,khor,47.8861,134.9464,245.7,100,96,0.28,RU,1676839243
410,port moresby,-9.4431,147.1797,296.83,100,20,1.54,PG,1676839244
411,koutiala,12.3917,-5.4642,301.27,10,31,3.39,ML,1676839244
412,hauterive,46.0901,3.4459,282.79,87,23,0.77,FR,1676839245
413,buritis,-15.6178,-46.4233,301.56,46,100,3.69,BR,1676839245
414,pangai,-19.8,-174.35,301.21,78,75,1.03,TO,1676839246
415,kibala,9.1104,18.3463,298.12,19,0,1.54,TD,1676839246
416,ust-maya,60.4167,134.5333,247.75,99,100,1.36,RU,1676839247
417,gimli,50.6336,-96.9907,256.16,51,99,3.6,CA,1676839035
418,poum,-20.2333,164.0167,299.18,73,6,5.6,NC,1676839248
419,oussouye,12.485,-16.5469,301.25,74,27,3.4,SN,1676839248
420,itarema,-2.9248,-39.9167,299.28,79,100,4.39,BR,1676839249
421,soc trang,9.6033,105.98,297.17,81,99,2.13,VN,1676839249
422,port hedland,-20.3167,118.5667,301.18,69,8,0.0,AU,1676839250
423,bayir,37.2687,28.2167,276.44,92,0,1.45,TR,1676839250
424,tibagi,-24.5094,-50.4136,292.04,81,100,2.49,BR,1676839251
425,sao felix do xingu,-6.6447,-51.995,298.11,93,93,0.92,BR,1676839251
426,coquimbo,-29.9533,-71.3436,296.0,64,0,6.17,CL,1676839252
427,henties bay,-22.116,14.2845,291.44,79,46,2.93,NA,1676839253
428,leshukonskoye,64.8989,45.7622,255.29,99,72,2.01,RU,1676839254
429,chibuto,-24.6867,33.5306,298.1,89,95,2.07,MZ,1676839255
430,tiznit,29.5833,-9.5,288.36,49,0,1.04,MA,1676839255
431,kieta,-6.2167,155.6333,299.75,80,64,0.95,PG,1676839255
432,atherton,53.5237,-2.4935,281.98,81,100,0.89,GB,1676839256
433,baykit,61.67,96.37,251.29,100,100,0.86,RU,1676839257
434,cocobeach,1.0002,9.5823,300.37,81,61,3.81,GA,1676839257
435,college,64.8569,-147.8028,259.03,86,100,0.0,US,1676839258
436,beyneu,45.3167,55.2,275.69,89,100,4.12,KZ,1676839258
437,kupang,-10.1667,123.5833,298.78,84,97,1.17,ID,1676839259
438,noumea,-22.2763,166.4572,299.82,99,94,5.27,NC,1676839191
439,shahr-e kord,32.3256,50.8644,265.02,73,0,2.06,IR,1676839260
440,labytnangi,66.6572,66.4183,254.49,92,53,1.38,RU,1676839260
441,lagoa,39.05,-27.9833,287.07,73,38,1.41,PT,1676839261
442,kawalu,-7.3817,108.2082,294.8,96,99,0.59,ID,1676839262
443,haines junction,60.7522,-137.5108,266.12,79,99,0.51,CA,1676839262
444,saldus,56.6636,22.4881,272.59,70,30,5.87,LV,1676839263
445,leh,34.1667,77.5833,266.72,93,100,1.29,IN,1676839263
446,nauta,-4.5061,-73.5757,299.3,90,99,1.23,PE,1676839264
447,sumkino,58.1108,68.3244,250.34,100,94,1.77,RU,1676839265
448,stillwater,36.1156,-97.0584,294.3,31,0,5.14,US,1676839196
449,kovur,14.4833,79.9833,293.12,83,1,3.02,IN,1676839266
450,inongo,-1.95,18.2667,298.08,52,98,2.15,CD,1676839266
451,rabo de peixe,37.8,-25.5833,285.88,88,20,5.66,PT,1676839267
452,erdemli,36.605,34.3084,284.54,78,0,1.55,TR,1676839267
453,itoman,26.1247,127.6694,291.16,68,100,10.8,JP,1676839268
454,rundu,-17.9333,19.7667,295.73,28,100,3.16,NA,1676839268
455,oakdale,44.963,-92.9649,275.12,70,40,5.66,US,1676839269
456,emerald,-23.5333,148.1667,295.01,77,95,3.3,AU,1676839269
457,ludvika,60.1496,15.1878,270.56,78,80,1.69,SE,1676839270
458,san felipe,10.3399,-68.7425,299.1,57,0,4.64,VE,1676839270
459,la paz,-16.5,-68.15,291.14,31,75,3.09,BO,1676839008
460,gorontalo,0.5412,123.0595,297.37,95,99,1.22,ID,1676839272
461,yumen,40.2833,97.2,271.27,41,100,1.36,CN,1676839272
462,kaitangata,-46.2817,169.8464,289.8,71,42,1.48,NZ,1676839273
463,achinsk,56.2694,90.4993,261.29,96,100,1.7,RU,1676839274
464,chota,-6.55,-78.65,289.43,83,98,2.07,PE,1676839275
465,stephenville,32.2207,-98.2023,295.22,26,40,4.63,US,1676839050
466,petropavlovsk-kamchatskiy,53.0452,158.6483,262.48,62,75,6.0,RU,1676839276
467,mongoumba,3.6415,18.5936,299.27,26,100,0.52,CF,1676839277
468,praia da vitoria,38.7333,-27.0667,287.46,88,75,2.04,PT,1676839277
469,wajir,1.7471,40.0573,302.0,14,100,5.29,KE,1676839278
470,halifax,44.6453,-63.5724,276.31,70,100,3.6,CA,1676839278
471,camacha,33.0833,-16.3333,288.83,82,75,4.63,PT,1676839279
472,port-gentil,-0.7193,8.7815,302.13,84,20,3.09,GA,1676839279
473,the pas,53.8251,-101.2541,252.16,65,0,2.06,CA,1676839280
474,channel-port aux basques,47.5702,-59.1367,270.34,66,99,8.92,CA,1676839281
475,robertsport,6.7533,-11.3686,299.44,87,3,3.52,LR,1676839281
476,komsomolskiy,40.4272,71.7189,275.55,93,3,2.06,UZ,1676839282
477,windhoek,-22.5594,17.0832,289.92,35,1,3.94,NA,1676839212
478,nakamura,32.9833,132.9333,281.23,67,100,4.13,JP,1676839282
479,rabat,33.9911,-6.8401,288.19,94,96,0.0,MA,1676839283
480,kavieng,-2.5744,150.7967,300.85,75,93,1.79,PG,1676839284
481,byron bay,-28.65,153.6167,293.12,76,100,2.93,AU,1676838793
482,vila do maio,15.1333,-23.2167,294.59,75,90,8.21,CV,1676839284
483,vestmannaeyjar,63.4427,-20.2734,276.86,88,100,21.28,IS,1676839285
484,launceston,-41.45,147.1667,288.6,89,68,3.6,AU,1676839286
485,surman,32.7567,12.5716,287.19,65,0,1.94,LY,1676839287
486,srednekolymsk,67.45,153.6833,239.57,98,100,2.9,RU,1676839288
487,avera,33.194,-82.5271,292.88,55,68,3.4,US,1676839288
488,ejby,55.4858,12.0817,275.91,87,98,4.12,DK,1676839289
489,baker city,44.7749,-117.8344,278.48,59,0,0.0,US,1676839289
490,juneau,58.3019,-134.4197,277.16,97,100,3.09,US,1676839290
491,neijiang,29.5835,105.0622,285.57,70,100,1.94,CN,1676839290
492,thunder bay,48.4001,-89.3168,269.14,58,75,8.23,CA,1676839257
493,pochutla,15.7432,-96.4661,306.94,37,51,4.33,MX,1676839291
494,roma,43.2128,-75.4557,281.83,39,0,4.12,US,1676839292
495,tecoanapa,16.5167,-98.75,303.42,50,2,4.12,MX,1676839292
496,bilibino,68.0546,166.4372,245.32,98,100,0.62,RU,1676839293
497,umba,66.6871,34.3429,266.73,89,100,3.44,RU,1676839293
498,dukat,62.55,155.55,235.43,99,99,1.64,RU,1676839294
499,bongaree,-27.0797,153.1586,298.83,77,100,5.56,AU,1676839294
500,tazovskiy,67.4667,78.7,247.59,100,54,1.77,RU,1676839295
501,phangnga,8.4509,98.5298,297.17,92,21,1.37,TH,1676839296
502,coihaique,-45.5752,-72.0662,290.49,36,40,3.09,CL,1676839045
503,manbij,36.5281,37.9549,280.54,72,5,1.43,SY,1676839296
504,bilma,18.6853,12.9164,292.05,17,0,3.26,NE,1676839297
505,kahului,20.8947,-156.47,299.17,72,20,2.57,US,1676839093
506,severomuysk,56.1481,113.4267,243.39,98,64,1.78,RU,1676839298
507,dwarka,22.2394,68.9678,295.8,73,4,4.31,IN,1676839299
508,ayagoz,47.9714,80.4392,255.94,100,97,2.17,KZ,1676839299
509,bud,39.447,-86.1758,287.82,39,0,7.06,US,1676839300
510,ingham,42.6,-84.3833,284.25,51,0,6.69,US,1676839300
511,sur,22.5667,59.5289,295.52,63,3,0.97,OM,1676839301
512,salinopolis,-0.6136,-47.3561,297.82,90,100,4.07,BR,1676839301
513,manicore,-5.8092,-61.3003,301.12,83,20,1.54,BR,1676839302
514,novo horizonte,-21.4681,-49.2208,293.94,85,98,6.41,BR,1676839302
515,praya,14.9215,-23.5087,294.45,78,75,10.29,CV,1676839129
516,simeykyne,48.3264,39.5337,272.43,91,100,3.35,UA,1676839303
517,ahipara,-35.1667,173.1667,293.31,69,63,1.95,NZ,1676839304
518,traralgon,-38.1833,146.5333,288.21,78,8,0.55,AU,1676839304
519,alofi,-19.0595,-169.9187,301.09,83,75,4.63,NU,1676839305
520,christchurch,-43.5333,172.6333,293.89,79,11,2.57,NZ,1676839283
521,tabalosos,-6.35,-76.6833,292.26,92,100,0.65,PE,1676839306
522,tevriz,57.509,72.4042,250.46,100,99,1.36,RU,1676839306
523,road town,18.4167,-64.6167,301.2,54,20,4.63,VG,1676839307
524,mbeya,-8.9,33.45,289.1,87,80,2.06,TZ,1676839307
525,forbes,-33.3833,148.0167,298.66,55,0,2.84,AU,1676839308
526,lazaro cardenas,17.9583,-102.2,302.86,50,4,5.08,MX,1676839308
527,kapuskasing,49.4169,-82.4331,273.2,93,100,5.66,CA,1676839308
528,sumbe,-11.2061,13.8437,296.79,83,67,3.25,AO,1676839309
529,taoudenni,22.6783,-3.9836,299.29,11,97,5.51,ML,1676839309
530,palora,-1.7,-77.9333,298.21,68,98,1.03,EC,1676839310
531,outjo,-20.1167,16.15,290.52,51,67,6.9,NA,1676839310
532,urengoy,65.9667,78.3667,246.8,100,76,1.33,RU,1676839311
533,sorland,67.667,12.6934,275.07,75,26,5.18,NO,1676839311
534,beian,63.6559,9.5683,274.27,74,0,4.12,NO,1676839312
535,taga,46.95,24.05,278.33,79,100,7.49,RO,1676839312
536,dargaville,-35.9333,173.8833,292.75,77,99,1.51,NZ,1676839312
537,egvekinot,66.3167,-179.1667,244.09,84,67,4.3,RU,1676839313
538,burhar,23.2167,81.5333,288.59,37,0,1.41,IN,1676839313
539,bivolari,47.5333,27.4333,278.47,81,100,7.0,RO,1676839315
540,mecca,21.4267,39.8261,297.14,54,14,1.29,SA,1676839026
541,camana,-16.6228,-72.7111,298.99,75,64,4.0,PE,1676839316
542,haveli,30.4502,73.6989,292.3,21,100,2.73,PK,1676839316
543,manzanillo,20.3433,-77.1167,304.85,34,0,7.14,CU,1676839317
544,orange,33.7,-117.7675,296.24,32,20,5.14,US,1676839247
545,santa rosa,14.3122,121.1114,297.65,95,99,1.17,PH,1676839037
546,ensley,30.5188,-87.2728,295.42,58,0,5.14,US,1676839318
